{
"type": "FeatureCollection",
"name": "playgrounds",
"crs": { "type": "name", "properties": { "name": "urn:ogc:def:crs:OGC:1.3:CRS84" } },
"features": [
{ "type": "Feature", "properties": { "Name": "Exchange Park", "description": null, "timestamp": null, "begin": null, "end": null, "altitudeMode": null, "tessellate": -1, "extrude": 0, "visibility": -1, "drawOrder": null, "icon": null }, "geometry": { "type": "Point", "coordinates": [ -111.6711783, 40.2468714, 0.0 ] } },
{ "type": "Feature", "properties": { "Name": "Bonneville Park", "description": null, "timestamp": null, "begin": null, "end": null, "altitudeMode": null, "tessellate": -1, "extrude": 0, "visibility": -1, "drawOrder": null, "icon": null }, "geometry": { "type": "Point", "coordinates": [ -111.714801703411084, 40.324963584396762, 0.0 ] } },
{ "type": "Feature", "properties": { "Name": "Exchange Park", "description": null, "timestamp": null, "begin": null, "end": null, "altitudeMode": null, "tessellate": -1, "extrude": 0, "visibility": -1, "drawOrder": null, "icon": null }, "geometry": { "type": "Point", "coordinates": [ -111.6711783, 40.2468714, 0.0 ] } },
{ "type": "Feature", "properties": { "Name": "Historic Peteeneet Playground", "description": null, "timestamp": null, "begin": null, "end": null, "altitudeMode": null, "tessellate": -1, "extrude": 0, "visibility": -1, "drawOrder": null, "icon": null }, "geometry": { "type": "Point", "coordinates": [ -111.7245647, 40.0438105, 0.0 ] } },
{ "type": "Feature", "properties": { "Name": "Memorial Square", "description": null, "timestamp": null, "begin": null, "end": null, "altitudeMode": null, "tessellate": -1, "extrude": 0, "visibility": -1, "drawOrder": null, "icon": null }, "geometry": { "type": "Point", "coordinates": [ -111.654446, 40.1126275, 0.0 ] } },
{ "type": "Feature", "properties": { "Name": "Playground", "description": null, "timestamp": null, "begin": null, "end": null, "altitudeMode": null, "tessellate": -1, "extrude": 0, "visibility": -1, "drawOrder": null, "icon": null }, "geometry": { "type": "Point", "coordinates": [ -111.738244656756876, 40.017125369285651, 0.0 ] } },
{ "type": "Feature", "properties": { "Name": "Ira Allan Park", "description": null, "timestamp": null, "begin": null, "end": null, "altitudeMode": null, "tessellate": -1, "extrude": 0, "visibility": -1, "drawOrder": null, "icon": null }, "geometry": { "type": "Point", "coordinates": [ -111.5894742, 40.1128077, 0.0 ] } },
{ "type": "Feature", "properties": { "Name": "Dream View Park", "description": null, "timestamp": null, "begin": null, "end": null, "altitudeMode": null, "tessellate": -1, "extrude": 0, "visibility": -1, "drawOrder": null, "icon": null }, "geometry": { "type": "Point", "coordinates": [ -111.6697842, 40.043875, 0.0 ] } },
{ "type": "Feature", "properties": { "Name": "Mount Loafer Park", "description": null, "timestamp": null, "begin": null, "end": null, "altitudeMode": null, "tessellate": -1, "extrude": 0, "visibility": -1, "drawOrder": null, "icon": null }, "geometry": { "type": "Point", "coordinates": [ -111.6838416, 40.0285985, 0.0 ] } },
{ "type": "Feature", "properties": { "Name": "Elk Ridge Meadows Park", "description": null, "timestamp": null, "begin": null, "end": null, "altitudeMode": null, "tessellate": -1, "extrude": 0, "visibility": -1, "drawOrder": null, "icon": null }, "geometry": { "type": "Point", "coordinates": [ -111.6860093, 40.0242297, 0.0 ] } },
{ "type": "Feature", "properties": { "Name": "Shuler Park", "description": null, "timestamp": null, "begin": null, "end": null, "altitudeMode": null, "tessellate": -1, "extrude": 0, "visibility": -1, "drawOrder": null, "icon": null }, "geometry": { "type": "Point", "coordinates": [ -111.6809316, 40.0141336, 0.0 ] } },
{ "type": "Feature", "properties": { "Name": "Knoll Park", "description": null, "timestamp": null, "begin": null, "end": null, "altitudeMode": null, "tessellate": -1, "extrude": 0, "visibility": -1, "drawOrder": null, "icon": null }, "geometry": { "type": "Point", "coordinates": [ -111.6761406, 40.0505991, 0.0 ] } },
{ "type": "Feature", "properties": { "Name": "Memorial Park", "description": null, "timestamp": null, "begin": null, "end": null, "altitudeMode": null, "tessellate": -1, "extrude": 0, "visibility": -1, "drawOrder": null, "icon": null }, "geometry": { "type": "Point", "coordinates": [ -111.7314718, 40.0404089, 0.0 ] } },
{ "type": "Feature", "properties": { "Name": "Park", "description": null, "timestamp": null, "begin": null, "end": null, "altitudeMode": null, "tessellate": -1, "extrude": 0, "visibility": -1, "drawOrder": null, "icon": null }, "geometry": { "type": "Point", "coordinates": [ -111.7395659, 40.0208523, 0.0 ] } },
{ "type": "Feature", "properties": { "Name": "Jesse Taylor Park", "description": null, "timestamp": null, "begin": null, "end": null, "altitudeMode": null, "tessellate": -1, "extrude": 0, "visibility": -1, "drawOrder": null, "icon": null }, "geometry": { "type": "Point", "coordinates": [ -111.7481088, 40.0233538, 0.0 ] } },
{ "type": "Feature", "properties": { "Name": "Joaquin Park", "description": null, "timestamp": null, "begin": null, "end": null, "altitudeMode": null, "tessellate": -1, "extrude": 0, "visibility": -1, "drawOrder": null, "icon": null }, "geometry": { "type": "Point", "coordinates": [ -111.6513575, 40.2387732, 0.0 ] } },
{ "type": "Feature", "properties": { "Name": "Orem City All Together Playground", "description": null, "timestamp": null, "begin": null, "end": null, "altitudeMode": null, "tessellate": -1, "extrude": 0, "visibility": -1, "drawOrder": null, "icon": null }, "geometry": { "type": "Point", "coordinates": [ -111.6886402, 40.2985363, 0.0 ] } },
{ "type": "Feature", "properties": { "Name": "Sharon Park", "description": null, "timestamp": null, "begin": null, "end": null, "altitudeMode": null, "tessellate": -1, "extrude": 0, "visibility": -1, "drawOrder": null, "icon": null }, "geometry": { "type": "Point", "coordinates": [ -111.689362, 40.3072865, 0.0 ] } },
{ "type": "Feature", "properties": { "Name": "The Orchard", "description": null, "timestamp": null, "begin": null, "end": null, "altitudeMode": null, "tessellate": -1, "extrude": 0, "visibility": -1, "drawOrder": null, "icon": null }, "geometry": { "type": "Point", "coordinates": [ -111.6811123, 40.2760391, 0.0 ] } },
{ "type": "Feature", "properties": { "Name": "The Preserves Playground", "description": null, "timestamp": null, "begin": null, "end": null, "altitudeMode": null, "tessellate": -1, "extrude": 0, "visibility": -1, "drawOrder": null, "icon": null }, "geometry": { "type": "Point", "coordinates": [ -111.759083, 40.3089171, 0.0 ] } },
{ "type": "Feature", "properties": { "Name": "Coconut Cove", "description": null, "timestamp": null, "begin": null, "end": null, "altitudeMode": null, "tessellate": -1, "extrude": 0, "visibility": -1, "drawOrder": null, "icon": null }, "geometry": null },
{ "type": "Feature", "properties": { "Name": "Northridge Park", "description": null, "timestamp": null, "begin": null, "end": null, "altitudeMode": null, "tessellate": -1, "extrude": 0, "visibility": -1, "drawOrder": null, "icon": null }, "geometry": { "type": "Point", "coordinates": [ -111.6923431, 40.3286207, 0.0 ] } },
{ "type": "Feature", "properties": { "Name": "Hollow Park", "description": null, "timestamp": null, "begin": null, "end": null, "altitudeMode": null, "tessellate": -1, "extrude": 0, "visibility": -1, "drawOrder": null, "icon": null }, "geometry": { "type": "Point", "coordinates": [ -111.7086444, 40.3439666, 0.0 ] } },
{ "type": "Feature", "properties": { "Name": "Pioneer Park", "description": null, "timestamp": null, "begin": null, "end": null, "altitudeMode": null, "tessellate": -1, "extrude": 0, "visibility": -1, "drawOrder": null, "icon": null }, "geometry": { "type": "Point", "coordinates": [ -111.7024041, 40.3351675, 0.0 ] } },
{ "type": "Feature", "properties": { "Name": "Lindon City Park", "description": null, "timestamp": null, "begin": null, "end": null, "altitudeMode": null, "tessellate": -1, "extrude": 0, "visibility": -1, "drawOrder": null, "icon": null }, "geometry": { "type": "Point", "coordinates": [ -111.7186621, 40.3420135, 0.0 ] } },
{ "type": "Feature", "properties": { "Name": "Creekside Park", "description": null, "timestamp": null, "begin": null, "end": null, "altitudeMode": null, "tessellate": -1, "extrude": 0, "visibility": -1, "drawOrder": null, "icon": null }, "geometry": { "type": "Point", "coordinates": [ -111.7296062, 40.3368213, 0.0 ] } },
{ "type": "Feature", "properties": { "Name": "Palisade Park", "description": null, "timestamp": null, "begin": null, "end": null, "altitudeMode": null, "tessellate": -1, "extrude": 0, "visibility": -1, "drawOrder": null, "icon": null }, "geometry": { "type": "Point", "coordinates": [ -111.6653899, 40.3141352, 0.0 ] } },
{ "type": "Feature", "properties": { "Name": "Cascade Park", "description": null, "timestamp": null, "begin": null, "end": null, "altitudeMode": null, "tessellate": -1, "extrude": 0, "visibility": -1, "drawOrder": null, "icon": null }, "geometry": { "type": "Point", "coordinates": [ -111.6731525, 40.2996551, 0.0 ] } },
{ "type": "Feature", "properties": { "Name": "Riverview Park", "description": null, "timestamp": null, "begin": null, "end": null, "altitudeMode": null, "tessellate": -1, "extrude": 0, "visibility": -1, "drawOrder": null, "icon": null }, "geometry": { "type": "Point", "coordinates": [ -111.662771, 40.295233, 0.0 ] } },
{ "type": "Feature", "properties": { "Name": "Scera Park", "description": null, "timestamp": null, "begin": null, "end": null, "altitudeMode": null, "tessellate": -1, "extrude": 0, "visibility": -1, "drawOrder": null, "icon": null }, "geometry": { "type": "Point", "coordinates": [ -111.6876852, 40.2867544, 0.0 ] } },
{ "type": "Feature", "properties": { "Name": "Westmore Park", "description": null, "timestamp": null, "begin": null, "end": null, "altitudeMode": null, "tessellate": -1, "extrude": 0, "visibility": -1, "drawOrder": null, "icon": null }, "geometry": { "type": "Point", "coordinates": [ -111.6971873, 40.277427, 0.0 ] } },
{ "type": "Feature", "properties": { "Name": "Rock Canyon Park", "description": null, "timestamp": null, "begin": null, "end": null, "altitudeMode": null, "tessellate": -1, "extrude": 0, "visibility": -1, "drawOrder": null, "icon": null }, "geometry": { "type": "Point", "coordinates": [ -111.6356342, 40.2671936, 0.0 ] } },
{ "type": "Feature", "properties": { "Name": "Lions Park", "description": null, "timestamp": null, "begin": null, "end": null, "altitudeMode": null, "tessellate": -1, "extrude": 0, "visibility": -1, "drawOrder": null, "icon": null }, "geometry": { "type": "Point", "coordinates": [ -111.676134, 40.250323, 0.0 ] } },
{ "type": "Feature", "properties": { "Name": "Rotary Park", "description": null, "timestamp": null, "begin": null, "end": null, "altitudeMode": null, "tessellate": -1, "extrude": 0, "visibility": -1, "drawOrder": null, "icon": null }, "geometry": { "type": "Point", "coordinates": [ -111.6862349, 40.2549137, 0.0 ] } },
{ "type": "Feature", "properties": { "Name": "Kiwanis Park", "description": null, "timestamp": null, "begin": null, "end": null, "altitudeMode": null, "tessellate": -1, "extrude": 0, "visibility": -1, "drawOrder": null, "icon": null }, "geometry": { "type": "Point", "coordinates": [ -111.639774, 40.246933, 0.0 ] } },
{ "type": "Feature", "properties": { "Name": "North Park", "description": null, "timestamp": null, "begin": null, "end": null, "altitudeMode": null, "tessellate": -1, "extrude": 0, "visibility": -1, "drawOrder": null, "icon": null }, "geometry": { "type": "Point", "coordinates": [ -111.6664406, 40.2407189, 0.0 ] } },
{ "type": "Feature", "properties": { "Name": "Riverside Park", "description": null, "timestamp": null, "begin": null, "end": null, "altitudeMode": null, "tessellate": -1, "extrude": 0, "visibility": -1, "drawOrder": null, "icon": null }, "geometry": { "type": "Point", "coordinates": [ -111.6808836, 40.2422423, 0.0 ] } },
{ "type": "Feature", "properties": { "Name": "Paul Ream Wilderness Park", "description": null, "timestamp": null, "begin": null, "end": null, "altitudeMode": null, "tessellate": -1, "extrude": 0, "visibility": -1, "drawOrder": null, "icon": null }, "geometry": { "type": "Point", "coordinates": [ -111.6861063, 40.241439, 0.0 ] } },
{ "type": "Feature", "properties": { "Name": "Memorial Park", "description": null, "timestamp": null, "begin": null, "end": null, "altitudeMode": null, "tessellate": -1, "extrude": 0, "visibility": -1, "drawOrder": null, "icon": null }, "geometry": { "type": "Point", "coordinates": [ -111.644203, 40.2341941, 0.0 ] } },
{ "type": "Feature", "properties": { "Name": "Pioneer Park", "description": null, "timestamp": null, "begin": null, "end": null, "altitudeMode": null, "tessellate": -1, "extrude": 0, "visibility": -1, "drawOrder": null, "icon": null }, "geometry": { "type": "Point", "coordinates": [ -111.668294, 40.233059, 0.0 ] } },
{ "type": "Feature", "properties": { "Name": "Franklin Park", "description": null, "timestamp": null, "begin": null, "end": null, "altitudeMode": null, "tessellate": -1, "extrude": 0, "visibility": -1, "drawOrder": null, "icon": null }, "geometry": { "type": "Point", "coordinates": [ -111.6728603, 40.225058, 0.0 ] } },
{ "type": "Feature", "properties": { "Name": "Maeser Park", "description": null, "timestamp": null, "begin": null, "end": null, "altitudeMode": null, "tessellate": -1, "extrude": 0, "visibility": -1, "drawOrder": null, "icon": null }, "geometry": { "type": "Point", "coordinates": [ -111.6506083, 40.2259024, 0.0 ] } },
{ "type": "Feature", "properties": { "Name": "Spring Creek Park", "description": null, "timestamp": null, "begin": null, "end": null, "altitudeMode": null, "tessellate": -1, "extrude": 0, "visibility": -1, "drawOrder": null, "icon": null }, "geometry": { "type": "Point", "coordinates": [ -111.6384473, 40.2181924, 0.0 ] } },
{ "type": "Feature", "properties": { "Name": "Bicentennial Park", "description": null, "timestamp": null, "begin": null, "end": null, "altitudeMode": null, "tessellate": -1, "extrude": 0, "visibility": -1, "drawOrder": null, "icon": null }, "geometry": { "type": "Point", "coordinates": [ -111.631047857711778, 40.21446867519024, 0.0 ] } },
{ "type": "Feature", "properties": { "Name": "East Mountain HOA Private Park", "description": null, "timestamp": null, "begin": null, "end": null, "altitudeMode": null, "tessellate": -1, "extrude": 0, "visibility": -1, "drawOrder": null, "icon": null }, "geometry": { "type": "Point", "coordinates": [ -111.6211762, 40.2028874, 0.0 ] } },
{ "type": "Feature", "properties": { "Name": "Devon Glen Park", "description": null, "timestamp": null, "begin": null, "end": null, "altitudeMode": null, "tessellate": -1, "extrude": 0, "visibility": -1, "drawOrder": null, "icon": null }, "geometry": { "type": "Point", "coordinates": [ -111.629054, 40.1767811, 0.0 ] } },
{ "type": "Feature", "properties": { "Name": "Spring Creek Park", "description": null, "timestamp": null, "begin": null, "end": null, "altitudeMode": null, "tessellate": -1, "extrude": 0, "visibility": -1, "drawOrder": null, "icon": null }, "geometry": { "type": "Point", "coordinates": [ -111.6008618, 40.1759759, 0.0 ] } },
{ "type": "Feature", "properties": { "Name": "Ray Arthur Wing Park", "description": null, "timestamp": null, "begin": null, "end": null, "altitudeMode": null, "tessellate": -1, "extrude": 0, "visibility": -1, "drawOrder": null, "icon": null }, "geometry": { "type": "Point", "coordinates": [ -111.629627, 40.169344, 0.0 ] } },
{ "type": "Feature", "properties": { "Name": "Child Park", "description": null, "timestamp": null, "begin": null, "end": null, "altitudeMode": null, "tessellate": -1, "extrude": 0, "visibility": -1, "drawOrder": null, "icon": null }, "geometry": { "type": "Point", "coordinates": [ -111.5861428, 40.1631237, 0.0 ] } },
{ "type": "Feature", "properties": { "Name": "Kelvin Grove Park", "description": null, "timestamp": null, "begin": null, "end": null, "altitudeMode": null, "tessellate": -1, "extrude": 0, "visibility": -1, "drawOrder": null, "icon": null }, "geometry": { "type": "Point", "coordinates": [ -111.6369265, 40.1456514, 0.0 ] } },
{ "type": "Feature", "properties": { "Name": "Mapleton City Park", "description": null, "timestamp": null, "begin": null, "end": null, "altitudeMode": null, "tessellate": -1, "extrude": 0, "visibility": -1, "drawOrder": null, "icon": null }, "geometry": { "type": "Point", "coordinates": [ -111.577987, 40.1296919, 0.0 ] } },
{ "type": "Feature", "properties": { "Name": "North Park", "description": null, "timestamp": null, "begin": null, "end": null, "altitudeMode": null, "tessellate": -1, "extrude": 0, "visibility": -1, "drawOrder": null, "icon": null }, "geometry": { "type": "Point", "coordinates": [ -111.595086, 40.1439717, 0.0 ] } },
{ "type": "Feature", "properties": { "Name": "North Park", "description": null, "timestamp": null, "begin": null, "end": null, "altitudeMode": null, "tessellate": -1, "extrude": 0, "visibility": -1, "drawOrder": null, "icon": null }, "geometry": { "type": "Point", "coordinates": [ -111.6486498, 40.1256166, 0.0 ] } },
{ "type": "Feature", "properties": { "Name": "Little Chicago Park", "description": null, "timestamp": null, "begin": null, "end": null, "altitudeMode": null, "tessellate": -1, "extrude": 0, "visibility": -1, "drawOrder": null, "icon": null }, "geometry": { "type": "Point", "coordinates": [ -111.6485566, 40.1194512, 0.0 ] } },
{ "type": "Feature", "properties": { "Name": "Centennial Park", "description": null, "timestamp": null, "begin": null, "end": null, "altitudeMode": null, "tessellate": -1, "extrude": 0, "visibility": -1, "drawOrder": null, "icon": null }, "geometry": { "type": "Point", "coordinates": [ -111.6449691, 40.1026222, 0.0 ] } },
{ "type": "Feature", "properties": { "Name": "Abbey Court", "description": null, "timestamp": null, "begin": null, "end": null, "altitudeMode": null, "tessellate": -1, "extrude": 0, "visibility": -1, "drawOrder": null, "icon": null }, "geometry": { "type": "Point", "coordinates": [ -111.659043754998976, 40.103513516362682, 0.0 ] } },
{ "type": "Feature", "properties": { "Name": "Dry Mountain Park", "description": null, "timestamp": null, "begin": null, "end": null, "altitudeMode": null, "tessellate": -1, "extrude": 0, "visibility": -1, "drawOrder": null, "icon": null }, "geometry": { "type": "Point", "coordinates": [ -111.7345951, 40.0220269, 0.0 ] } },
{ "type": "Feature", "properties": { "Name": "East Side Park", "description": null, "timestamp": null, "begin": null, "end": null, "altitudeMode": null, "tessellate": -1, "extrude": 0, "visibility": -1, "drawOrder": null, "icon": null }, "geometry": { "type": "Point", "coordinates": [ -111.726553027829127, 40.030855031758328, 0.0 ] } },
{ "type": "Feature", "properties": { "Name": "Genola Park", "description": null, "timestamp": null, "begin": null, "end": null, "altitudeMode": null, "tessellate": -1, "extrude": 0, "visibility": -1, "drawOrder": null, "icon": null }, "geometry": { "type": "Point", "coordinates": [ -111.843363, 39.9828215, 0.0 ] } },
{ "type": "Feature", "properties": { "Name": "Playground", "description": null, "timestamp": null, "begin": null, "end": null, "altitudeMode": null, "tessellate": -1, "extrude": 0, "visibility": -1, "drawOrder": null, "icon": null }, "geometry": { "type": "Point", "coordinates": [ -111.9012719, 40.3129412, 0.0 ] } },
{ "type": "Feature", "properties": { "Name": "Playground", "description": null, "timestamp": null, "begin": null, "end": null, "altitudeMode": null, "tessellate": -1, "extrude": 0, "visibility": -1, "drawOrder": null, "icon": null }, "geometry": { "type": "Point", "coordinates": [ -111.9523486, 40.35523, 0.0 ] } },
{ "type": "Feature", "properties": { "Name": "Orchard Hills Park", "description": null, "timestamp": null, "begin": null, "end": null, "altitudeMode": null, "tessellate": -1, "extrude": 0, "visibility": -1, "drawOrder": null, "icon": null }, "geometry": { "type": "Point", "coordinates": [ -111.7789797, 39.9650036, 0.0 ] } },
{ "type": "Feature", "properties": { "Name": "Squash Head Park", "description": null, "timestamp": null, "begin": null, "end": null, "altitudeMode": null, "tessellate": -1, "extrude": 0, "visibility": -1, "drawOrder": null, "icon": null }, "geometry": { "type": "Point", "coordinates": [ -111.7841033, 39.9760085, 0.0 ] } },
{ "type": "Feature", "properties": { "Name": "City Center Park", "description": null, "timestamp": null, "begin": null, "end": null, "altitudeMode": null, "tessellate": -1, "extrude": 0, "visibility": -1, "drawOrder": null, "icon": null }, "geometry": { "type": "Point", "coordinates": [ -111.786608, 39.9729727, 0.0 ] } },
{ "type": "Feature", "properties": { "Name": "Orchard Cove Park", "description": null, "timestamp": null, "begin": null, "end": null, "altitudeMode": null, "tessellate": -1, "extrude": 0, "visibility": -1, "drawOrder": null, "icon": null }, "geometry": { "type": "Point", "coordinates": [ -111.7911474, 39.9881654, 0.0 ] } },
{ "type": "Feature", "properties": { "Name": "Playground", "description": null, "timestamp": null, "begin": null, "end": null, "altitudeMode": null, "tessellate": -1, "extrude": 0, "visibility": -1, "drawOrder": null, "icon": null }, "geometry": { "type": "Point", "coordinates": [ -112.0104588, 40.310144, 0.0 ] } },
{ "type": "Feature", "properties": { "Name": "Playground", "description": null, "timestamp": null, "begin": null, "end": null, "altitudeMode": null, "tessellate": -1, "extrude": 0, "visibility": -1, "drawOrder": null, "icon": null }, "geometry": { "type": "Point", "coordinates": [ -111.96438, 40.3494821, 0.0 ] } },
{ "type": "Feature", "properties": { "Name": "Orem Community Park", "description": null, "timestamp": null, "begin": null, "end": null, "altitudeMode": null, "tessellate": -1, "extrude": 0, "visibility": -1, "drawOrder": null, "icon": null }, "geometry": { "type": "Point", "coordinates": [ -111.7102127, 40.2928292, 0.0 ] } },
{ "type": "Feature", "properties": { "Name": "Lakeside Sports Park", "description": null, "timestamp": null, "begin": null, "end": null, "altitudeMode": null, "tessellate": -1, "extrude": 0, "visibility": -1, "drawOrder": null, "icon": null }, "geometry": { "type": "Point", "coordinates": [ -111.739694, 40.2914176, 0.0 ] } },
{ "type": "Feature", "properties": { "Name": "Rendezvous Park", "description": null, "timestamp": null, "begin": null, "end": null, "altitudeMode": null, "tessellate": -1, "extrude": 0, "visibility": -1, "drawOrder": null, "icon": null }, "geometry": { "type": "Point", "coordinates": [ -111.7393141, 40.29773, 0.0 ] } },
{ "type": "Feature", "properties": { "Name": "Bridgeport Park", "description": null, "timestamp": null, "begin": null, "end": null, "altitudeMode": null, "tessellate": -1, "extrude": 0, "visibility": -1, "drawOrder": null, "icon": null }, "geometry": { "type": "Point", "coordinates": [ -111.7429107, 40.3002243, 0.0 ] } },
{ "type": "Feature", "properties": { "Name": "Tucker Row Playground", "description": null, "timestamp": null, "begin": null, "end": null, "altitudeMode": null, "tessellate": -1, "extrude": 0, "visibility": -1, "drawOrder": null, "icon": null }, "geometry": { "type": "Point", "coordinates": [ -111.7485528, 40.3088292, 0.0 ] } },
{ "type": "Feature", "properties": { "Name": "Lifetime Store - Orem", "description": null, "timestamp": null, "begin": null, "end": null, "altitudeMode": null, "tessellate": -1, "extrude": 0, "visibility": -1, "drawOrder": null, "icon": null }, "geometry": null },
{ "type": "Feature", "properties": { "Name": "Hillcrest Park", "description": null, "timestamp": null, "begin": null, "end": null, "altitudeMode": null, "tessellate": -1, "extrude": 0, "visibility": -1, "drawOrder": null, "icon": null }, "geometry": { "type": "Point", "coordinates": [ -111.67842060603374, 40.272217038169288, 0.0 ] } },
{ "type": "Feature", "properties": { "Name": "Nielsen's Grove Park", "description": null, "timestamp": null, "begin": null, "end": null, "altitudeMode": null, "tessellate": -1, "extrude": 0, "visibility": -1, "drawOrder": null, "icon": null }, "geometry": { "type": "Point", "coordinates": [ -111.703255, 40.2622492, 0.0 ] } },
{ "type": "Feature", "properties": { "Name": "Discovery (Manila) Park", "description": null, "timestamp": null, "begin": null, "end": null, "altitudeMode": null, "tessellate": -1, "extrude": 0, "visibility": -1, "drawOrder": null, "icon": null }, "geometry": { "type": "Point", "coordinates": [ -111.7407851, 40.3805514, 0.0 ] } },
{ "type": "Feature", "properties": { "Name": "Playground at Sunrise Summit Park", "description": null, "timestamp": null, "begin": null, "end": null, "altitudeMode": null, "tessellate": -1, "extrude": 0, "visibility": -1, "drawOrder": null, "icon": null }, "geometry": { "type": "Point", "coordinates": [ -111.8930107, 40.4443297, 0.0 ] } },
{ "type": "Feature", "properties": { "Name": "Timpanogos Cove Park", "description": null, "timestamp": null, "begin": null, "end": null, "altitudeMode": null, "tessellate": -1, "extrude": 0, "visibility": -1, "drawOrder": null, "icon": null }, "geometry": { "type": "Point", "coordinates": [ -111.7435622, 40.4058471, 0.0 ] } },
{ "type": "Feature", "properties": { "Name": "Sunset Park", "description": null, "timestamp": null, "begin": null, "end": null, "altitudeMode": null, "tessellate": -1, "extrude": 0, "visibility": -1, "drawOrder": null, "icon": null }, "geometry": { "type": "Point", "coordinates": [ -111.7637675, 40.4102314, 0.0 ] } },
{ "type": "Feature", "properties": { "Name": "Cedar Run Park", "description": null, "timestamp": null, "begin": null, "end": null, "altitudeMode": null, "tessellate": -1, "extrude": 0, "visibility": -1, "drawOrder": null, "icon": null }, "geometry": { "type": "Point", "coordinates": [ -111.7701382, 40.4071806, 0.0 ] } },
{ "type": "Feature", "properties": { "Name": "Heiselt's Hollow Park", "description": null, "timestamp": null, "begin": null, "end": null, "altitudeMode": null, "tessellate": -1, "extrude": 0, "visibility": -1, "drawOrder": null, "icon": null }, "geometry": { "type": "Point", "coordinates": [ -111.7528529, 40.4141109, 0.0 ] } },
{ "type": "Feature", "properties": { "Name": "Heritage Park", "description": null, "timestamp": null, "begin": null, "end": null, "altitudeMode": null, "tessellate": -1, "extrude": 0, "visibility": -1, "drawOrder": null, "icon": null }, "geometry": { "type": "Point", "coordinates": [ -111.764587730276816, 40.414275937052402, 0.0 ] } },
{ "type": "Feature", "properties": { "Name": "Mesquite Park", "description": null, "timestamp": null, "begin": null, "end": null, "altitudeMode": null, "tessellate": -1, "extrude": 0, "visibility": -1, "drawOrder": null, "icon": null }, "geometry": { "type": "Point", "coordinates": [ -111.7596029, 40.4219794, 0.0 ] } },
{ "type": "Feature", "properties": { "Name": "Heritage Park", "description": null, "timestamp": null, "begin": null, "end": null, "altitudeMode": null, "tessellate": -1, "extrude": 0, "visibility": -1, "drawOrder": null, "icon": null }, "geometry": { "type": "Point", "coordinates": [ -111.7879227, 40.4200411, 0.0 ] } },
{ "type": "Feature", "properties": { "Name": "Healey Park", "description": null, "timestamp": null, "begin": null, "end": null, "altitudeMode": null, "tessellate": -1, "extrude": 0, "visibility": -1, "drawOrder": null, "icon": null }, "geometry": { "type": "Point", "coordinates": [ -111.7621992, 40.4404191, 0.0 ] } },
{ "type": "Feature", "properties": { "Name": "Creekside Park", "description": null, "timestamp": null, "begin": null, "end": null, "altitudeMode": null, "tessellate": -1, "extrude": 0, "visibility": -1, "drawOrder": null, "icon": null }, "geometry": { "type": "Point", "coordinates": [ -111.7692454, 40.4534291, 0.0 ] } },
{ "type": "Feature", "properties": { "Name": "Legacy Park", "description": null, "timestamp": null, "begin": null, "end": null, "altitudeMode": null, "tessellate": -1, "extrude": 0, "visibility": -1, "drawOrder": null, "icon": null }, "geometry": { "type": "Point", "coordinates": [ -111.7772228, 40.4526476, 0.0 ] } },
{ "type": "Feature", "properties": { "Name": "Evergreen Park", "description": null, "timestamp": null, "begin": null, "end": null, "altitudeMode": null, "tessellate": -1, "extrude": 0, "visibility": -1, "drawOrder": null, "icon": null }, "geometry": { "type": "Point", "coordinates": [ -111.7789797, 40.3810839, 0.0 ] } },
{ "type": "Feature", "properties": { "Name": "William S. Robinson Park", "description": null, "timestamp": null, "begin": null, "end": null, "altitudeMode": null, "tessellate": -1, "extrude": 0, "visibility": -1, "drawOrder": null, "icon": null }, "geometry": { "type": "Point", "coordinates": [ -111.7964458, 40.3760604, 0.0 ] } },
{ "type": "Feature", "properties": { "Name": "Hindley Park", "description": null, "timestamp": null, "begin": null, "end": null, "altitudeMode": null, "tessellate": -1, "extrude": 0, "visibility": -1, "drawOrder": null, "icon": null }, "geometry": { "type": "Point", "coordinates": [ -111.8134477, 40.3847681, 0.0 ] } },
{ "type": "Feature", "properties": { "Name": "Pioneer Cemetery Park", "description": null, "timestamp": null, "begin": null, "end": null, "altitudeMode": null, "tessellate": -1, "extrude": 0, "visibility": -1, "drawOrder": null, "icon": null }, "geometry": { "type": "Point", "coordinates": [ -111.7965823, 40.3836624, 0.0 ] } },
{ "type": "Feature", "properties": { "Name": "Spring Hollow Park", "description": null, "timestamp": null, "begin": null, "end": null, "altitudeMode": null, "tessellate": -1, "extrude": 0, "visibility": -1, "drawOrder": null, "icon": null }, "geometry": { "type": "Point", "coordinates": [ -111.8164287, 40.3893458, 0.0 ] } },
{ "type": "Feature", "properties": { "Name": "Bowrey Park", "description": null, "timestamp": null, "begin": null, "end": null, "altitudeMode": null, "tessellate": -1, "extrude": 0, "visibility": -1, "drawOrder": null, "icon": null }, "geometry": { "type": "Point", "coordinates": [ -111.8063678, 40.3904213, 0.0 ] } },
{ "type": "Feature", "properties": { "Name": "Kimberly Park", "description": null, "timestamp": null, "begin": null, "end": null, "altitudeMode": null, "tessellate": -1, "extrude": 0, "visibility": -1, "drawOrder": null, "icon": null }, "geometry": { "type": "Point", "coordinates": [ -111.8052499, 40.3952005, 0.0 ] } },
{ "type": "Feature", "properties": { "Name": "Hunter Park", "description": null, "timestamp": null, "begin": null, "end": null, "altitudeMode": null, "tessellate": -1, "extrude": 0, "visibility": -1, "drawOrder": null, "icon": null }, "geometry": { "type": "Point", "coordinates": [ -111.8140067, 40.400308, 0.0 ] } },
{ "type": "Feature", "properties": { "Name": "Greenwood Park", "description": null, "timestamp": null, "begin": null, "end": null, "altitudeMode": null, "tessellate": -1, "extrude": 0, "visibility": -1, "drawOrder": null, "icon": null }, "geometry": { "type": "Point", "coordinates": [ -111.7931395, 40.3667382, 0.0 ] } },
{ "type": "Feature", "properties": { "Name": "Margaret Wines Park", "description": null, "timestamp": null, "begin": null, "end": null, "altitudeMode": null, "tessellate": -1, "extrude": 0, "visibility": -1, "drawOrder": null, "icon": null }, "geometry": { "type": "Point", "coordinates": [ -111.8482882, 40.3941375, 0.0 ] } },
{ "type": "Feature", "properties": { "Name": "Bandwagon Park", "description": null, "timestamp": null, "begin": null, "end": null, "altitudeMode": null, "tessellate": -1, "extrude": 0, "visibility": -1, "drawOrder": null, "icon": null }, "geometry": { "type": "Point", "coordinates": [ -111.8533186, 40.3987626, 0.0 ] } },
{ "type": "Feature", "properties": { "Name": "Summercrest Park", "description": null, "timestamp": null, "begin": null, "end": null, "altitudeMode": null, "tessellate": -1, "extrude": 0, "visibility": -1, "drawOrder": null, "icon": null }, "geometry": { "type": "Point", "coordinates": [ -111.8327264, 40.4116369, 0.0 ] } },
{ "type": "Feature", "properties": { "Name": "Playground", "description": null, "timestamp": null, "begin": null, "end": null, "altitudeMode": null, "tessellate": -1, "extrude": 0, "visibility": -1, "drawOrder": null, "icon": null }, "geometry": { "type": "Point", "coordinates": [ -111.9548306, 40.3605558, 0.0 ] } },
{ "type": "Feature", "properties": { "Name": "Greens Park", "description": null, "timestamp": null, "begin": null, "end": null, "altitudeMode": null, "tessellate": -1, "extrude": 0, "visibility": -1, "drawOrder": null, "icon": null }, "geometry": { "type": "Point", "coordinates": [ -111.8788433, 40.4087429, 0.0 ] } },
{ "type": "Feature", "properties": { "Name": "Pilgrims Landing Park", "description": null, "timestamp": null, "begin": null, "end": null, "altitudeMode": null, "tessellate": -1, "extrude": 0, "visibility": -1, "drawOrder": null, "icon": null }, "geometry": { "type": "Point", "coordinates": [ -111.9017595, 40.4359275, 0.0 ] } },
{ "type": "Feature", "properties": { "Name": "Playground", "description": null, "timestamp": null, "begin": null, "end": null, "altitudeMode": null, "tessellate": -1, "extrude": 0, "visibility": -1, "drawOrder": null, "icon": null }, "geometry": { "type": "Point", "coordinates": [ -111.9857847, 40.358966, 0.0 ] } },
{ "type": "Feature", "properties": { "Name": "Greens Park", "description": null, "timestamp": null, "begin": null, "end": null, "altitudeMode": null, "tessellate": -1, "extrude": 0, "visibility": -1, "drawOrder": null, "icon": null }, "geometry": { "type": "Point", "coordinates": [ -111.8788433, 40.4087429, 0.0 ] } },
{ "type": "Feature", "properties": { "Name": "Play ground", "description": null, "timestamp": null, "begin": null, "end": null, "altitudeMode": null, "tessellate": -1, "extrude": 0, "visibility": -1, "drawOrder": null, "icon": null }, "geometry": { "type": "Point", "coordinates": [ -111.9264294, 40.3700313, 0.0 ] } },
{ "type": "Feature", "properties": { "Name": "Colony Pointe Park", "description": null, "timestamp": null, "begin": null, "end": null, "altitudeMode": null, "tessellate": -1, "extrude": 0, "visibility": -1, "drawOrder": null, "icon": null }, "geometry": { "type": "Point", "coordinates": [ -111.8794022, 40.401798, 0.0 ] } },
{ "type": "Feature", "properties": { "Name": "Scottfield Acres Park", "description": null, "timestamp": null, "begin": null, "end": null, "altitudeMode": null, "tessellate": -1, "extrude": 0, "visibility": -1, "drawOrder": null, "icon": null }, "geometry": { "type": "Point", "coordinates": [ -111.8794954, 40.4051967, 0.0 ] } },
{ "type": "Feature", "properties": { "Name": "Olympic Park", "description": null, "timestamp": null, "begin": null, "end": null, "altitudeMode": null, "tessellate": -1, "extrude": 0, "visibility": -1, "drawOrder": null, "icon": null }, "geometry": { "type": "Point", "coordinates": [ -111.8933755, 40.4092022, 0.0 ] } },
{ "type": "Feature", "properties": { "Name": "Sommerset Large Park", "description": null, "timestamp": null, "begin": null, "end": null, "altitudeMode": null, "tessellate": -1, "extrude": 0, "visibility": -1, "drawOrder": null, "icon": null }, "geometry": { "type": "Point", "coordinates": [ -111.8760486, 40.3839308, 0.0 ] } },
{ "type": "Feature", "properties": { "Name": "Stagecoach Crossing Small Park", "description": null, "timestamp": null, "begin": null, "end": null, "altitudeMode": null, "tessellate": -1, "extrude": 0, "visibility": -1, "drawOrder": null, "icon": null }, "geometry": { "type": "Point", "coordinates": [ -111.8737197, 40.3800622, 0.0 ] } },
{ "type": "Feature", "properties": { "Name": "Sports Park", "description": null, "timestamp": null, "begin": null, "end": null, "altitudeMode": null, "tessellate": -1, "extrude": 0, "visibility": -1, "drawOrder": null, "icon": null }, "geometry": { "type": "Point", "coordinates": [ -111.881655056527123, 40.379626278854815, 0.0 ] } },
{ "type": "Feature", "properties": { "Name": "Allred Park", "description": null, "timestamp": null, "begin": null, "end": null, "altitudeMode": null, "tessellate": -1, "extrude": 0, "visibility": -1, "drawOrder": null, "icon": null }, "geometry": { "type": "Point", "coordinates": [ -111.8617027, 40.3939126, 0.0 ] } },
{ "type": "Feature", "properties": { "Name": "Veterans Ball Park", "description": null, "timestamp": null, "begin": null, "end": null, "altitudeMode": null, "tessellate": -1, "extrude": 0, "visibility": -1, "drawOrder": null, "icon": null }, "geometry": { "type": "Point", "coordinates": [ -111.8631932, 40.3881485, 0.0 ] } },
{ "type": "Feature", "properties": { "Name": "Sommerset North Park", "description": null, "timestamp": null, "begin": null, "end": null, "altitudeMode": null, "tessellate": -1, "extrude": 0, "visibility": -1, "drawOrder": null, "icon": null }, "geometry": { "type": "Point", "coordinates": [ -111.8741855, 40.3867307, 0.0 ] } },
{ "type": "Feature", "properties": { "Name": "Chappel Valley Park", "description": null, "timestamp": null, "begin": null, "end": null, "altitudeMode": null, "tessellate": -1, "extrude": 0, "visibility": -1, "drawOrder": null, "icon": null }, "geometry": { "type": "Point", "coordinates": [ -111.8638372, 40.3763871, 0.0 ] } },
{ "type": "Feature", "properties": { "Name": "Broadmoor Park", "description": null, "timestamp": null, "begin": null, "end": null, "altitudeMode": null, "tessellate": -1, "extrude": 0, "visibility": -1, "drawOrder": null, "icon": null }, "geometry": { "type": "Point", "coordinates": [ -111.8385068, 40.3838419, 0.0 ] } },
{ "type": "Feature", "properties": { "Name": "Spring Creek Pavilion", "description": null, "timestamp": null, "begin": null, "end": null, "altitudeMode": null, "tessellate": -1, "extrude": 0, "visibility": -1, "drawOrder": null, "icon": null }, "geometry": { "type": "Point", "coordinates": [ -111.8374612, 40.3708533, 0.0 ] } },
{ "type": "Feature", "properties": { "Name": "Spring Creek Park", "description": null, "timestamp": null, "begin": null, "end": null, "altitudeMode": null, "tessellate": -1, "extrude": 0, "visibility": -1, "drawOrder": null, "icon": null }, "geometry": { "type": "Point", "coordinates": [ -111.8376768, 40.3629286, 0.0 ] } },
{ "type": "Feature", "properties": { "Name": "Saddleridge Park", "description": null, "timestamp": null, "begin": null, "end": null, "altitudeMode": null, "tessellate": -1, "extrude": 0, "visibility": -1, "drawOrder": null, "icon": null }, "geometry": { "type": "Point", "coordinates": [ -111.8557407, 40.367743, 0.0 ] } },
{ "type": "Feature", "properties": { "Name": "Loch Lomond Park", "description": null, "timestamp": null, "begin": null, "end": null, "altitudeMode": null, "tessellate": -1, "extrude": 0, "visibility": -1, "drawOrder": null, "icon": null }, "geometry": { "type": "Point", "coordinates": [ -111.8626342, 40.3625788, 0.0 ] } },
{ "type": "Feature", "properties": { "Name": "Loch Lomond HOA Private Park", "description": null, "timestamp": null, "begin": null, "end": null, "altitudeMode": null, "tessellate": -1, "extrude": 0, "visibility": -1, "drawOrder": null, "icon": null }, "geometry": { "type": "Point", "coordinates": [ -111.8657799, 40.3630078, 0.0 ] } },
{ "type": "Feature", "properties": { "Name": "Shay Park", "description": null, "timestamp": null, "begin": null, "end": null, "altitudeMode": null, "tessellate": -1, "extrude": 0, "visibility": -1, "drawOrder": null, "icon": null }, "geometry": { "type": "Point", "coordinates": [ -111.928233272015504, 40.392332587678972, 0.0 ] } },
{ "type": "Feature", "properties": { "Name": "Harvest Hills Park", "description": null, "timestamp": null, "begin": null, "end": null, "altitudeMode": null, "tessellate": -1, "extrude": 0, "visibility": -1, "drawOrder": null, "icon": null }, "geometry": { "type": "Point", "coordinates": [ -111.9316989, 40.4005167, 0.0 ] } },
{ "type": "Feature", "properties": { "Name": "Goldenrod Park", "description": null, "timestamp": null, "begin": null, "end": null, "altitudeMode": null, "tessellate": -1, "extrude": 0, "visibility": -1, "drawOrder": null, "icon": null }, "geometry": { "type": "Point", "coordinates": [ -111.9338978, 40.3954619, 0.0 ] } },
{ "type": "Feature", "properties": { "Name": "Orchard Park", "description": null, "timestamp": null, "begin": null, "end": null, "altitudeMode": null, "tessellate": -1, "extrude": 0, "visibility": -1, "drawOrder": null, "icon": null }, "geometry": { "type": "Point", "coordinates": [ -111.9267249, 40.4054666, 0.0 ] } },
{ "type": "Feature", "properties": { "Name": "Boysenberry Park", "description": null, "timestamp": null, "begin": null, "end": null, "altitudeMode": null, "tessellate": -1, "extrude": 0, "visibility": -1, "drawOrder": null, "icon": null }, "geometry": { "type": "Point", "coordinates": [ -111.9257002, 40.3999761, 0.0 ] } },
{ "type": "Feature", "properties": { "Name": "Harvest Moon Park", "description": null, "timestamp": null, "begin": null, "end": null, "altitudeMode": null, "tessellate": -1, "extrude": 0, "visibility": -1, "drawOrder": null, "icon": null }, "geometry": { "type": "Point", "coordinates": [ -111.9262592, 40.3956131, 0.0 ] } },
{ "type": "Feature", "properties": { "Name": "Arbor Park", "description": null, "timestamp": null, "begin": null, "end": null, "altitudeMode": null, "tessellate": -1, "extrude": 0, "visibility": -1, "drawOrder": null, "icon": null }, "geometry": { "type": "Point", "coordinates": [ -111.9234645, 40.3967757, 0.0 ] } },
{ "type": "Feature", "properties": { "Name": "Ultimate Dance Experience", "description": null, "timestamp": null, "begin": null, "end": null, "altitudeMode": null, "tessellate": -1, "extrude": 0, "visibility": -1, "drawOrder": null, "icon": null }, "geometry": { "type": "Point", "coordinates": [ -111.9184954, 40.3922965, 0.0 ] } },
{ "type": "Feature", "properties": { "Name": "Sunrise Park", "description": null, "timestamp": null, "begin": null, "end": null, "altitudeMode": null, "tessellate": -1, "extrude": 0, "visibility": -1, "drawOrder": null, "icon": null }, "geometry": { "type": "Point", "coordinates": [ -111.9362267, 40.3754824, 0.0 ] } },
{ "type": "Feature", "properties": { "Name": "Patriot Park", "description": null, "timestamp": null, "begin": null, "end": null, "altitudeMode": null, "tessellate": -1, "extrude": 0, "visibility": -1, "drawOrder": null, "icon": null }, "geometry": { "type": "Point", "coordinates": [ -111.9059879, 40.3562573, 0.0 ] } },
{ "type": "Feature", "properties": { "Name": "Inlet Park", "description": null, "timestamp": null, "begin": null, "end": null, "altitudeMode": null, "tessellate": -1, "extrude": 0, "visibility": -1, "drawOrder": null, "icon": null }, "geometry": { "type": "Point", "coordinates": [ -111.9001353, 40.3574811, 0.0 ] } },
{ "type": "Feature", "properties": { "Name": "Playground", "description": null, "timestamp": null, "begin": null, "end": null, "altitudeMode": null, "tessellate": -1, "extrude": 0, "visibility": -1, "drawOrder": null, "icon": null }, "geometry": { "type": "Point", "coordinates": [ -111.9012719, 40.3129412, 0.0 ] } },
{ "type": "Feature", "properties": { "Name": "Lucas Lane Park", "description": null, "timestamp": null, "begin": null, "end": null, "altitudeMode": null, "tessellate": -1, "extrude": 0, "visibility": -1, "drawOrder": null, "icon": null }, "geometry": { "type": "Point", "coordinates": [ -111.9241743, 40.3380963, 0.0 ] } },
{ "type": "Feature", "properties": { "Name": "Regal Park", "description": null, "timestamp": null, "begin": null, "end": null, "altitudeMode": null, "tessellate": -1, "extrude": 0, "visibility": -1, "drawOrder": null, "icon": null }, "geometry": { "type": "Point", "coordinates": [ -111.9306235, 40.3366135, 0.0 ] } },
{ "type": "Feature", "properties": { "Name": "Saratoga Hills Disc Golf Course", "description": null, "timestamp": null, "begin": null, "end": null, "altitudeMode": null, "tessellate": -1, "extrude": 0, "visibility": -1, "drawOrder": null, "icon": null }, "geometry": { "type": "Point", "coordinates": [ -111.919577, 40.3371354, 0.0 ] } },
{ "type": "Feature", "properties": { "Name": "Lake View Terrace Park", "description": null, "timestamp": null, "begin": null, "end": null, "altitudeMode": null, "tessellate": -1, "extrude": 0, "visibility": -1, "drawOrder": null, "icon": null }, "geometry": { "type": "Point", "coordinates": [ -111.9168566, 40.3344702, 0.0 ] } },
{ "type": "Feature", "properties": { "Name": "Eagle Park", "description": null, "timestamp": null, "begin": null, "end": null, "altitudeMode": null, "tessellate": -1, "extrude": 0, "visibility": -1, "drawOrder": null, "icon": null }, "geometry": { "type": "Point", "coordinates": [ -111.9069403, 40.3345828, 0.0 ] } },
{ "type": "Feature", "properties": { "Name": "Remington Park", "description": null, "timestamp": null, "begin": null, "end": null, "altitudeMode": null, "tessellate": -1, "extrude": 0, "visibility": -1, "drawOrder": null, "icon": null }, "geometry": { "type": "Point", "coordinates": [ -111.9102436, 40.3199374, 0.0 ] } },
{ "type": "Feature", "properties": { "Name": "Fox Hollow Park", "description": null, "timestamp": null, "begin": null, "end": null, "altitudeMode": null, "tessellate": -1, "extrude": 0, "visibility": -1, "drawOrder": null, "icon": null }, "geometry": { "type": "Point", "coordinates": [ -111.9009629, 40.3086129, 0.0 ] } },
{ "type": "Feature", "properties": { "Name": "Little Tikes Commercial Playgrounds Rep -Michael Feidler", "description": null, "timestamp": null, "begin": null, "end": null, "altitudeMode": null, "tessellate": -1, "extrude": 0, "visibility": -1, "drawOrder": null, "icon": null }, "geometry": { "type": "Point", "coordinates": [ -111.888313519785385, 40.300256155719374, 0.0 ] } },
{ "type": "Feature", "properties": { "Name": "Exceptional Kids Playground", "description": null, "timestamp": null, "begin": null, "end": null, "altitudeMode": null, "tessellate": -1, "extrude": 0, "visibility": -1, "drawOrder": null, "icon": null }, "geometry": { "type": "Point", "coordinates": [ -111.9691147, 40.3595715, 0.0 ] } },
{ "type": "Feature", "properties": { "Name": "Pioneer Park", "description": null, "timestamp": null, "begin": null, "end": null, "altitudeMode": null, "tessellate": -1, "extrude": 0, "visibility": -1, "drawOrder": null, "icon": null }, "geometry": { "type": "Point", "coordinates": [ -112.0055522, 40.3136667, 0.0 ] } },
{ "type": "Feature", "properties": { "Name": "Eagle Point Park “C”", "description": null, "timestamp": null, "begin": null, "end": null, "altitudeMode": null, "tessellate": -1, "extrude": 0, "visibility": -1, "drawOrder": null, "icon": null }, "geometry": { "type": "Point", "coordinates": [ -112.0016202, 40.3018282, 0.0 ] } },
{ "type": "Feature", "properties": { "Name": "Autumn Ridge Park", "description": null, "timestamp": null, "begin": null, "end": null, "altitudeMode": null, "tessellate": -1, "extrude": 0, "visibility": -1, "drawOrder": null, "icon": null }, "geometry": { "type": "Point", "coordinates": [ -112.0254671, 40.3128828, 0.0 ] } },
{ "type": "Feature", "properties": { "Name": "Eagle Park Commons", "description": null, "timestamp": null, "begin": null, "end": null, "altitudeMode": null, "tessellate": -1, "extrude": 0, "visibility": -1, "drawOrder": null, "icon": null }, "geometry": { "type": "Point", "coordinates": [ -112.0168971, 40.3133766, 0.0 ] } },
{ "type": "Feature", "properties": { "Name": "Pioneer Addition 5 Park", "description": null, "timestamp": null, "begin": null, "end": null, "altitudeMode": null, "tessellate": -1, "extrude": 0, "visibility": -1, "drawOrder": null, "icon": null }, "geometry": { "type": "Point", "coordinates": [ -112.0078776, 40.3153679, 0.0 ] } },
{ "type": "Feature", "properties": { "Name": "Pioneer Addition 6 Park", "description": null, "timestamp": null, "begin": null, "end": null, "altitudeMode": null, "tessellate": -1, "extrude": 0, "visibility": -1, "drawOrder": null, "icon": null }, "geometry": { "type": "Point", "coordinates": [ -112.0035954, 40.3154178, 0.0 ] } },
{ "type": "Feature", "properties": { "Name": "Pioneer Addition 7 Park", "description": null, "timestamp": null, "begin": null, "end": null, "altitudeMode": null, "tessellate": -1, "extrude": 0, "visibility": -1, "drawOrder": null, "icon": null }, "geometry": { "type": "Point", "coordinates": [ -111.9993667, 40.3154831, 0.0 ] } },
{ "type": "Feature", "properties": { "Name": "Playground", "description": null, "timestamp": null, "begin": null, "end": null, "altitudeMode": null, "tessellate": -1, "extrude": 0, "visibility": -1, "drawOrder": null, "icon": null }, "geometry": { "type": "Point", "coordinates": [ -112.0104655, 40.3105454, 0.0 ] } },
{ "type": "Feature", "properties": { "Name": "Walden Park", "description": null, "timestamp": null, "begin": null, "end": null, "altitudeMode": null, "tessellate": -1, "extrude": 0, "visibility": -1, "drawOrder": null, "icon": null }, "geometry": { "type": "Point", "coordinates": [ -112.0065279, 40.3099859, 0.0 ] } },
{ "type": "Feature", "properties": { "Name": "Eagle Point Park \"B\"", "description": null, "timestamp": null, "begin": null, "end": null, "altitudeMode": null, "tessellate": -1, "extrude": 0, "visibility": -1, "drawOrder": null, "icon": null }, "geometry": { "type": "Point", "coordinates": [ -112.0064641, 40.2987339, 0.0 ] } },
{ "type": "Feature", "properties": { "Name": "Sweetwater Park", "description": null, "timestamp": null, "begin": null, "end": null, "altitudeMode": null, "tessellate": -1, "extrude": 0, "visibility": -1, "drawOrder": null, "icon": null }, "geometry": { "type": "Point", "coordinates": [ -112.0077113, 40.3009811, 0.0 ] } },
{ "type": "Feature", "properties": { "Name": "Overland Park", "description": null, "timestamp": null, "begin": null, "end": null, "altitudeMode": null, "tessellate": -1, "extrude": 0, "visibility": -1, "drawOrder": null, "icon": null }, "geometry": { "type": "Point", "coordinates": [ -112.0250754, 40.3070859, 0.0 ] } },
{ "type": "Feature", "properties": { "Name": "Cory Wride Memorial Park", "description": null, "timestamp": null, "begin": null, "end": null, "altitudeMode": null, "tessellate": -1, "extrude": 0, "visibility": -1, "drawOrder": null, "icon": null }, "geometry": { "type": "Point", "coordinates": [ -112.0137702, 40.3309261, 0.0 ] } },
{ "type": "Feature", "properties": { "Name": "Lakewood Park", "description": null, "timestamp": null, "begin": null, "end": null, "altitudeMode": null, "tessellate": -1, "extrude": 0, "visibility": -1, "drawOrder": null, "icon": null }, "geometry": { "type": "Point", "coordinates": [ -111.8844216, 40.2951782, 0.0 ] } },
{ "type": "Feature", "properties": { "Name": "Panorama Park", "description": null, "timestamp": null, "begin": null, "end": null, "altitudeMode": null, "tessellate": -1, "extrude": 0, "visibility": -1, "drawOrder": null, "icon": null }, "geometry": { "type": "Point", "coordinates": [ -111.8828746, 40.2898048, 0.0 ] } },
{ "type": "Feature", "properties": { "Name": "Mountain Moon Park", "description": null, "timestamp": null, "begin": null, "end": null, "altitudeMode": null, "tessellate": -1, "extrude": 0, "visibility": -1, "drawOrder": null, "icon": null }, "geometry": { "type": "Point", "coordinates": [ -111.8808632, 40.2877087, 0.0 ] } },
{ "type": "Feature", "properties": { "Name": "Point 165 Saratoga Springs", "description": null, "timestamp": null, "begin": null, "end": null, "altitudeMode": null, "tessellate": -1, "extrude": 0, "visibility": -1, "drawOrder": null, "icon": null }, "geometry": { "type": "Point", "coordinates": [ -111.8920348, 40.3019553, 0.0 ] } },
{ "type": "Feature", "properties": { "Name": "North Ranch Park", "description": null, "timestamp": null, "begin": null, "end": null, "altitudeMode": null, "tessellate": -1, "extrude": 0, "visibility": -1, "drawOrder": null, "icon": null }, "geometry": { "type": "Point", "coordinates": [ -112.0105183, 40.3794819, 0.0 ] } },
{ "type": "Feature", "properties": { "Name": "Valley View Park", "description": null, "timestamp": null, "begin": null, "end": null, "altitudeMode": null, "tessellate": -1, "extrude": 0, "visibility": -1, "drawOrder": null, "icon": null }, "geometry": { "type": "Point", "coordinates": [ -112.0010154, 40.3847515, 0.0 ] } },
{ "type": "Feature", "properties": { "Name": "Meadow Ranch South Park", "description": null, "timestamp": null, "begin": null, "end": null, "altitudeMode": null, "tessellate": -1, "extrude": 0, "visibility": -1, "drawOrder": null, "icon": null }, "geometry": { "type": "Point", "coordinates": [ -111.9895221, 40.3833057, 0.0 ] } },
{ "type": "Feature", "properties": { "Name": "Meadow Ranch North Park", "description": null, "timestamp": null, "begin": null, "end": null, "altitudeMode": null, "tessellate": -1, "extrude": 0, "visibility": -1, "drawOrder": null, "icon": null }, "geometry": { "type": "Point", "coordinates": [ -111.9873355, 40.3860514, 0.0 ] } },
{ "type": "Feature", "properties": { "Name": "West Vineyard Park", "description": null, "timestamp": null, "begin": null, "end": null, "altitudeMode": null, "tessellate": -1, "extrude": 0, "visibility": -1, "drawOrder": null, "icon": null }, "geometry": { "type": "Point", "coordinates": [ -111.9282154, 40.3969708, 0.0 ] } },
{ "type": "Feature", "properties": { "Name": "The Exchange Park", "description": null, "timestamp": null, "begin": null, "end": null, "altitudeMode": null, "tessellate": -1, "extrude": 0, "visibility": -1, "drawOrder": null, "icon": null }, "geometry": { "type": "Point", "coordinates": [ -111.9074997, 40.410123, 0.0 ] } },
{ "type": "Feature", "properties": { "Name": "Willow Park", "description": null, "timestamp": null, "begin": null, "end": null, "altitudeMode": null, "tessellate": -1, "extrude": 0, "visibility": -1, "drawOrder": null, "icon": null }, "geometry": { "type": "Point", "coordinates": [ -111.901512542480063, 40.390011744008234, 0.0 ] } },
{ "type": "Feature", "properties": { "Name": "Harvest Park", "description": null, "timestamp": null, "begin": null, "end": null, "altitudeMode": null, "tessellate": -1, "extrude": 0, "visibility": -1, "drawOrder": null, "icon": null }, "geometry": { "type": "Point", "coordinates": [ -111.886787, 40.4405849, 0.0 ] } },
{ "type": "Feature", "properties": { "Name": "Cresthaven Apartments", "description": null, "timestamp": null, "begin": null, "end": null, "altitudeMode": null, "tessellate": -1, "extrude": 0, "visibility": -1, "drawOrder": null, "icon": null }, "geometry": { "type": "Point", "coordinates": [ -111.8846174, 40.4384246, 0.0 ] } },
{ "type": "Feature", "properties": { "Name": "Eagle Summit Park", "description": null, "timestamp": null, "begin": null, "end": null, "altitudeMode": null, "tessellate": -1, "extrude": 0, "visibility": -1, "drawOrder": null, "icon": null }, "geometry": { "type": "Point", "coordinates": [ -111.8921286, 40.4503557, 0.0 ] } },
{ "type": "Feature", "properties": { "Name": "Skyline Ridge Park", "description": null, "timestamp": null, "begin": null, "end": null, "altitudeMode": null, "tessellate": -1, "extrude": 0, "visibility": -1, "drawOrder": null, "icon": null }, "geometry": { "type": "Point", "coordinates": [ -111.9687587, 40.3496886, 0.0 ] } },
{ "type": "Feature", "properties": { "Name": "Evans Ranch Townhome Park", "description": null, "timestamp": null, "begin": null, "end": null, "altitudeMode": null, "tessellate": -1, "extrude": 0, "visibility": -1, "drawOrder": null, "icon": null }, "geometry": { "type": "Point", "coordinates": [ -111.9620847, 40.3496858, 0.0 ] } },
{ "type": "Feature", "properties": { "Name": "Evans Ranch Park", "description": null, "timestamp": null, "begin": null, "end": null, "altitudeMode": null, "tessellate": -1, "extrude": 0, "visibility": -1, "drawOrder": null, "icon": null }, "geometry": { "type": "Point", "coordinates": [ -111.9629349, 40.3545202, 0.0 ] } },
{ "type": "Feature", "properties": { "Name": "Freemont Springs Park", "description": null, "timestamp": null, "begin": null, "end": null, "altitudeMode": null, "tessellate": -1, "extrude": 0, "visibility": -1, "drawOrder": null, "icon": null }, "geometry": { "type": "Point", "coordinates": [ -111.965233, 40.3526205, 0.0 ] } },
{ "type": "Feature", "properties": { "Name": "Three's Crossing Park", "description": null, "timestamp": null, "begin": null, "end": null, "altitudeMode": null, "tessellate": -1, "extrude": 0, "visibility": -1, "drawOrder": null, "icon": null }, "geometry": { "type": "Point", "coordinates": [ -111.9662079, 40.3560634, 0.0 ] } },
{ "type": "Feature", "properties": { "Name": "Oak Hollow Park", "description": null, "timestamp": null, "begin": null, "end": null, "altitudeMode": null, "tessellate": -1, "extrude": 0, "visibility": -1, "drawOrder": null, "icon": null }, "geometry": { "type": "Point", "coordinates": [ -111.9613675, 40.3599404, 0.0 ] } },
{ "type": "Feature", "properties": { "Name": "Saddleback Park", "description": null, "timestamp": null, "begin": null, "end": null, "altitudeMode": null, "tessellate": -1, "extrude": 0, "visibility": -1, "drawOrder": null, "icon": null }, "geometry": { "type": "Point", "coordinates": [ -111.9702248, 40.3585275, 0.0 ] } },
{ "type": "Feature", "properties": { "Name": "Rush Valley Park", "description": null, "timestamp": null, "begin": null, "end": null, "altitudeMode": null, "tessellate": -1, "extrude": 0, "visibility": -1, "drawOrder": null, "icon": null }, "geometry": { "type": "Point", "coordinates": [ -111.9716266, 40.3611319, 0.0 ] } },
{ "type": "Feature", "properties": { "Name": "Liberty Farms Park", "description": null, "timestamp": null, "begin": null, "end": null, "altitudeMode": null, "tessellate": -1, "extrude": 0, "visibility": -1, "drawOrder": null, "icon": null }, "geometry": { "type": "Point", "coordinates": [ -111.9755081, 40.3574854, 0.0 ] } },
{ "type": "Feature", "properties": { "Name": "Nolen Park", "description": null, "timestamp": null, "begin": null, "end": null, "altitudeMode": null, "tessellate": -1, "extrude": 0, "visibility": -1, "drawOrder": null, "icon": null }, "geometry": { "type": "Point", "coordinates": [ -111.9817221, 40.3593574, 0.0 ] } },
{ "type": "Feature", "properties": { "Name": "Ash Point Park", "description": null, "timestamp": null, "begin": null, "end": null, "altitudeMode": null, "tessellate": -1, "extrude": 0, "visibility": -1, "drawOrder": null, "icon": null }, "geometry": { "type": "Point", "coordinates": [ -111.988918, 40.3603327, 0.0 ] } },
{ "type": "Feature", "properties": { "Name": "Eagle's Gate West Park", "description": null, "timestamp": null, "begin": null, "end": null, "altitudeMode": null, "tessellate": -1, "extrude": 0, "visibility": -1, "drawOrder": null, "icon": null }, "geometry": { "type": "Point", "coordinates": [ -111.9739429, 40.368212, 0.0 ] } },
{ "type": "Feature", "properties": { "Name": "Eagle's Gate East Park", "description": null, "timestamp": null, "begin": null, "end": null, "altitudeMode": null, "tessellate": -1, "extrude": 0, "visibility": -1, "drawOrder": null, "icon": null }, "geometry": { "type": "Point", "coordinates": [ -111.9701812, 40.3666035, 0.0 ] } },
{ "type": "Feature", "properties": { "Name": "Stonebridge Park", "description": null, "timestamp": null, "begin": null, "end": null, "altitudeMode": null, "tessellate": -1, "extrude": 0, "visibility": -1, "drawOrder": null, "icon": null }, "geometry": { "type": "Point", "coordinates": [ -111.9787903, 40.3732426, 0.0 ] } },
{ "type": "Feature", "properties": { "Name": "Silver Lake North Park", "description": null, "timestamp": null, "begin": null, "end": null, "altitudeMode": null, "tessellate": -1, "extrude": 0, "visibility": -1, "drawOrder": null, "icon": null }, "geometry": { "type": "Point", "coordinates": [ -111.9458239, 40.3613201, 0.0 ] } },
{ "type": "Feature", "properties": { "Name": "Ansley Lane Pocket Park", "description": null, "timestamp": null, "begin": null, "end": null, "altitudeMode": null, "tessellate": -1, "extrude": 0, "visibility": -1, "drawOrder": null, "icon": null }, "geometry": { "type": "Point", "coordinates": [ -111.9508167, 40.3578086, 0.0 ] } },
{ "type": "Feature", "properties": { "Name": "Lonetree Park", "description": null, "timestamp": null, "begin": null, "end": null, "altitudeMode": null, "tessellate": -1, "extrude": 0, "visibility": -1, "drawOrder": null, "icon": null }, "geometry": { "type": "Point", "coordinates": [ -112.0026449, 40.3561083, 0.0 ] } },
{ "type": "Feature", "properties": { "Name": "Westview Heights Park", "description": null, "timestamp": null, "begin": null, "end": null, "altitudeMode": null, "tessellate": -1, "extrude": 0, "visibility": -1, "drawOrder": null, "icon": null }, "geometry": { "type": "Point", "coordinates": [ -111.9970518, 40.3767367, 0.0 ] } },
{ "type": "Feature", "properties": { "Name": "Sage Valley Park", "description": null, "timestamp": null, "begin": null, "end": null, "altitudeMode": null, "tessellate": -1, "extrude": 0, "visibility": -1, "drawOrder": null, "icon": null }, "geometry": { "type": "Point", "coordinates": [ -112.0155947, 40.3732428, 0.0 ] } },
{ "type": "Feature", "properties": { "Name": "Saratoga Springs Park and Pavilion", "description": null, "timestamp": null, "begin": null, "end": null, "altitudeMode": null, "tessellate": -1, "extrude": 0, "visibility": -1, "drawOrder": null, "icon": null }, "geometry": { "type": "Point", "coordinates": [ -111.9043907, 40.3497637, 0.0 ] } },
{ "type": "Feature", "properties": { "Name": "Forest-Mellor Park", "description": null, "timestamp": null, "begin": null, "end": null, "altitudeMode": null, "tessellate": -1, "extrude": 0, "visibility": -1, "drawOrder": null, "icon": null }, "geometry": { "type": "Point", "coordinates": [ -111.8764356, 40.3720214, 0.0 ] } },
{ "type": "Feature", "properties": { "Name": "Lehi Skate Park", "description": null, "timestamp": null, "begin": null, "end": null, "altitudeMode": null, "tessellate": -1, "extrude": 0, "visibility": -1, "drawOrder": null, "icon": null }, "geometry": { "type": "Point", "coordinates": [ -111.8821819, 40.4135884, 0.0 ] } },
{ "type": "Feature", "properties": { "Name": "Thanksgiving Point Trailhead park", "description": null, "timestamp": null, "begin": null, "end": null, "altitudeMode": null, "tessellate": -1, "extrude": 0, "visibility": -1, "drawOrder": null, "icon": null }, "geometry": { "type": "Point", "coordinates": [ -111.8933913, 40.4174917, 0.0 ] } },
{ "type": "Feature", "properties": { "Name": "Gateway Park", "description": null, "timestamp": null, "begin": null, "end": null, "altitudeMode": null, "tessellate": -1, "extrude": 0, "visibility": -1, "drawOrder": null, "icon": null }, "geometry": { "type": "Point", "coordinates": [ -111.8733471, 40.4097562, 0.0 ] } },
{ "type": "Feature", "properties": { "Name": "Dry creek park", "description": null, "timestamp": null, "begin": null, "end": null, "altitudeMode": null, "tessellate": -1, "extrude": 0, "visibility": -1, "drawOrder": null, "icon": null }, "geometry": { "type": "Point", "coordinates": [ -111.8511559, 40.4070187, 0.0 ] } },
{ "type": "Feature", "properties": { "Name": "Centennial Park", "description": null, "timestamp": null, "begin": null, "end": null, "altitudeMode": null, "tessellate": -1, "extrude": 0, "visibility": -1, "drawOrder": null, "icon": null }, "geometry": { "type": "Point", "coordinates": [ -111.8572312, 40.4160616, 0.0 ] } },
{ "type": "Feature", "properties": { "Name": "Centennial Park", "description": null, "timestamp": null, "begin": null, "end": null, "altitudeMode": null, "tessellate": -1, "extrude": 0, "visibility": -1, "drawOrder": null, "icon": null }, "geometry": { "type": "Point", "coordinates": [ -111.7991016, 40.3704262, 0.0 ] } },
{ "type": "Feature", "properties": { "Name": "Wimbleton Park", "description": null, "timestamp": null, "begin": null, "end": null, "altitudeMode": null, "tessellate": -1, "extrude": 0, "visibility": -1, "drawOrder": null, "icon": null }, "geometry": { "type": "Point", "coordinates": [ -111.8172892, 40.4150285, 0.0 ] } },
{ "type": "Feature", "properties": { "Name": "Mitchell Hollow Park", "description": null, "timestamp": null, "begin": null, "end": null, "altitudeMode": null, "tessellate": -1, "extrude": 0, "visibility": -1, "drawOrder": null, "icon": null }, "geometry": { "type": "Point", "coordinates": [ -111.8130325, 40.4194468, 0.0 ] } },
{ "type": "Feature", "properties": { "Name": "Canterbury North Park", "description": null, "timestamp": null, "begin": null, "end": null, "altitudeMode": null, "tessellate": -1, "extrude": 0, "visibility": -1, "drawOrder": null, "icon": null }, "geometry": { "type": "Point", "coordinates": [ -111.8169877, 40.4221996, 0.0 ] } },
{ "type": "Feature", "properties": { "Name": "Canterbury South Park", "description": null, "timestamp": null, "begin": null, "end": null, "altitudeMode": null, "tessellate": -1, "extrude": 0, "visibility": -1, "drawOrder": null, "icon": null }, "geometry": { "type": "Point", "coordinates": [ -111.7998468, 40.4085735, 0.0 ] } },
{ "type": "Feature", "properties": { "Name": "Windsor Meadows Park", "description": null, "timestamp": null, "begin": null, "end": null, "altitudeMode": null, "tessellate": -1, "extrude": 0, "visibility": -1, "drawOrder": null, "icon": null }, "geometry": { "type": "Point", "coordinates": [ -111.7909038, 40.4121616, 0.0 ] } },
{ "type": "Feature", "properties": { "Name": "F&S Park", "description": null, "timestamp": null, "begin": null, "end": null, "altitudeMode": null, "tessellate": -1, "extrude": 0, "visibility": -1, "drawOrder": null, "icon": null }, "geometry": { "type": "Point", "coordinates": [ -111.784308, 40.409467, 0.0 ] } },
{ "type": "Feature", "properties": { "Name": "Dry Creek Bench Park", "description": null, "timestamp": null, "begin": null, "end": null, "altitudeMode": null, "tessellate": -1, "extrude": 0, "visibility": -1, "drawOrder": null, "icon": null }, "geometry": { "type": "Point", "coordinates": [ -111.8093488, 40.4408675, 0.0 ] } },
{ "type": "Feature", "properties": { "Name": "Town Center Meadows Park", "description": null, "timestamp": null, "begin": null, "end": null, "altitudeMode": null, "tessellate": -1, "extrude": 0, "visibility": -1, "drawOrder": null, "icon": null }, "geometry": { "type": "Point", "coordinates": [ -111.7901799, 40.426367, 0.0 ] } },
{ "type": "Feature", "properties": { "Name": "Burgess Park", "description": null, "timestamp": null, "begin": null, "end": null, "altitudeMode": null, "tessellate": -1, "extrude": 0, "visibility": -1, "drawOrder": null, "icon": null }, "geometry": { "type": "Point", "coordinates": [ -111.7841965, 40.451147, 0.0 ] } },
{ "type": "Feature", "properties": { "Name": "Hayes Park", "description": null, "timestamp": null, "begin": null, "end": null, "altitudeMode": null, "tessellate": -1, "extrude": 0, "visibility": -1, "drawOrder": null, "icon": null }, "geometry": { "type": "Point", "coordinates": [ -111.7564356, 40.426401, 0.0 ] } },
{ "type": "Feature", "properties": { "Name": "Bayhill Park", "description": null, "timestamp": null, "begin": null, "end": null, "altitudeMode": null, "tessellate": -1, "extrude": 0, "visibility": -1, "drawOrder": null, "icon": null }, "geometry": { "type": "Point", "coordinates": [ -111.7508333, 40.4192225, 0.0 ] } },
{ "type": "Feature", "properties": { "Name": "Val Vista Park", "description": null, "timestamp": null, "begin": null, "end": null, "altitudeMode": null, "tessellate": -1, "extrude": 0, "visibility": -1, "drawOrder": null, "icon": null }, "geometry": { "type": "Point", "coordinates": [ -111.768726, 40.403412, 0.0 ] } },
{ "type": "Feature", "properties": { "Name": "Val Vista Park II", "description": null, "timestamp": null, "begin": null, "end": null, "altitudeMode": null, "tessellate": -1, "extrude": 0, "visibility": -1, "drawOrder": null, "icon": null }, "geometry": { "type": "Point", "coordinates": [ -111.7657735, 40.401991, 0.0 ] } },
{ "type": "Feature", "properties": { "Name": "Unknown Park Near Manila", "description": null, "timestamp": null, "begin": null, "end": null, "altitudeMode": null, "tessellate": -1, "extrude": 0, "visibility": -1, "drawOrder": null, "icon": null }, "geometry": { "type": "Point", "coordinates": [ -111.7472658, 40.3968961, 0.0 ] } },
{ "type": "Feature", "properties": { "Name": "Temple Meadow Park", "description": null, "timestamp": null, "begin": null, "end": null, "altitudeMode": null, "tessellate": -1, "extrude": 0, "visibility": -1, "drawOrder": null, "icon": null }, "geometry": { "type": "Point", "coordinates": [ -111.7658325, 40.3897276, 0.0 ] } },
{ "type": "Feature", "properties": { "Name": "Spring Meadow Park", "description": null, "timestamp": null, "begin": null, "end": null, "altitudeMode": null, "tessellate": -1, "extrude": 0, "visibility": -1, "drawOrder": null, "icon": null }, "geometry": { "type": "Point", "coordinates": [ -111.7620978, 40.3876287, 0.0 ] } },
{ "type": "Feature", "properties": { "Name": "Mahogany Park", "description": null, "timestamp": null, "begin": null, "end": null, "altitudeMode": null, "tessellate": -1, "extrude": 0, "visibility": -1, "drawOrder": null, "icon": null }, "geometry": { "type": "Point", "coordinates": [ -111.7555413, 40.3705369, 0.0 ] } },
{ "type": "Feature", "properties": { "Name": "Hill Park", "description": null, "timestamp": null, "begin": null, "end": null, "altitudeMode": null, "tessellate": -1, "extrude": 0, "visibility": -1, "drawOrder": null, "icon": null }, "geometry": { "type": "Point", "coordinates": [ -111.7068757, 40.3592391, 0.0 ] } },
{ "type": "Feature", "properties": { "Name": "Valley View Elementary School", "description": null, "timestamp": null, "begin": null, "end": null, "altitudeMode": null, "tessellate": -1, "extrude": 0, "visibility": -1, "drawOrder": null, "icon": null }, "geometry": { "type": "Point", "coordinates": [ -111.7193533, 40.3587495, 0.0 ] } },
{ "type": "Feature", "properties": { "Name": "Veterans Memorial Park", "description": null, "timestamp": null, "begin": null, "end": null, "altitudeMode": null, "tessellate": -1, "extrude": 0, "visibility": -1, "drawOrder": null, "icon": null }, "geometry": { "type": "Point", "coordinates": [ -111.7305011, 40.3598561, 0.0 ] } },
{ "type": "Feature", "properties": { "Name": "Fryer Park", "description": null, "timestamp": null, "begin": null, "end": null, "altitudeMode": null, "tessellate": -1, "extrude": 0, "visibility": -1, "drawOrder": null, "icon": null }, "geometry": { "type": "Point", "coordinates": [ -111.7150131, 40.3494438, 0.0 ] } },
{ "type": "Feature", "properties": { "Name": "Harrison Park", "description": null, "timestamp": null, "begin": null, "end": null, "altitudeMode": null, "tessellate": -1, "extrude": 0, "visibility": -1, "drawOrder": null, "icon": null }, "geometry": { "type": "Point", "coordinates": [ -111.6945725, 40.3408415, 0.0 ] } },
{ "type": "Feature", "properties": { "Name": "Pheasant Brook Park", "description": null, "timestamp": null, "begin": null, "end": null, "altitudeMode": null, "tessellate": -1, "extrude": 0, "visibility": -1, "drawOrder": null, "icon": null }, "geometry": { "type": "Point", "coordinates": [ -111.7357546, 40.3427623, 0.0 ] } },
{ "type": "Feature", "properties": { "Name": "Meadow Park", "description": null, "timestamp": null, "begin": null, "end": null, "altitudeMode": null, "tessellate": -1, "extrude": 0, "visibility": -1, "drawOrder": null, "icon": null }, "geometry": { "type": "Point", "coordinates": [ -111.7551577, 40.3467387, 0.0 ] } },
{ "type": "Feature", "properties": { "Name": "Windsor Park", "description": null, "timestamp": null, "begin": null, "end": null, "altitudeMode": null, "tessellate": -1, "extrude": 0, "visibility": -1, "drawOrder": null, "icon": null }, "geometry": { "type": "Point", "coordinates": [ -111.6992368, 40.321332, 0.0 ] } },
{ "type": "Feature", "properties": { "Name": "Martin Park", "description": null, "timestamp": null, "begin": null, "end": null, "altitudeMode": null, "tessellate": -1, "extrude": 0, "visibility": -1, "drawOrder": null, "icon": null }, "geometry": { "type": "Point", "coordinates": [ -111.8089762, 40.3899062, 0.0 ] } },
{ "type": "Feature", "properties": { "Name": "Beehive Field", "description": null, "timestamp": null, "begin": null, "end": null, "altitudeMode": null, "tessellate": -1, "extrude": 0, "visibility": -1, "drawOrder": null, "icon": null }, "geometry": { "type": "Point", "coordinates": [ -111.7831116, 40.3921548, 0.0 ] } },
{ "type": "Feature", "properties": { "Name": "Art Dye Disc Golf Park", "description": null, "timestamp": null, "begin": null, "end": null, "altitudeMode": null, "tessellate": -1, "extrude": 0, "visibility": -1, "drawOrder": null, "icon": null }, "geometry": { "type": "Point", "coordinates": [ -111.7823823, 40.397532, 0.0 ] } },
{ "type": "Feature", "properties": { "Name": "Nob Hill Park", "description": null, "timestamp": null, "begin": null, "end": null, "altitudeMode": null, "tessellate": -1, "extrude": 0, "visibility": -1, "drawOrder": null, "icon": null }, "geometry": { "type": "Point", "coordinates": [ -111.7984444, 40.3958029, 0.0 ] } },
{ "type": "Feature", "properties": { "Name": "Miller Park", "description": null, "timestamp": null, "begin": null, "end": null, "altitudeMode": null, "tessellate": -1, "extrude": 0, "visibility": -1, "drawOrder": null, "icon": null }, "geometry": { "type": "Point", "coordinates": [ -111.8038537, 40.3980615, 0.0 ] } },
{ "type": "Feature", "properties": { "Name": "Country View Park", "description": null, "timestamp": null, "begin": null, "end": null, "altitudeMode": null, "tessellate": -1, "extrude": 0, "visibility": -1, "drawOrder": null, "icon": null }, "geometry": { "type": "Point", "coordinates": [ -111.8020833, 40.4018056, 0.0 ] } },
{ "type": "Feature", "properties": { "Name": "Legacy Park", "description": null, "timestamp": null, "begin": null, "end": null, "altitudeMode": null, "tessellate": -1, "extrude": 0, "visibility": -1, "drawOrder": null, "icon": null }, "geometry": { "type": "Point", "coordinates": [ -111.8000331, 40.4032195, 0.0 ] } },
{ "type": "Feature", "properties": { "Name": "Unknown Park near Windsor Meadows Park", "description": null, "timestamp": null, "begin": null, "end": null, "altitudeMode": null, "tessellate": -1, "extrude": 0, "visibility": -1, "drawOrder": null, "icon": null }, "geometry": { "type": "Point", "coordinates": [ -111.7940279, 40.4126868, 0.0 ] } },
{ "type": "Feature", "properties": { "Name": "Dairy View Park", "description": null, "timestamp": null, "begin": null, "end": null, "altitudeMode": null, "tessellate": -1, "extrude": 0, "visibility": -1, "drawOrder": null, "icon": null }, "geometry": { "type": "Point", "coordinates": [ -111.8248763, 40.3991392, 0.0 ] } },
{ "type": "Feature", "properties": { "Name": "Coopers Hollow Park", "description": null, "timestamp": null, "begin": null, "end": null, "altitudeMode": null, "tessellate": -1, "extrude": 0, "visibility": -1, "drawOrder": null, "icon": null }, "geometry": { "type": "Point", "coordinates": [ -111.8283621, 40.3925618, 0.0 ] } },
{ "type": "Feature", "properties": { "Name": "American Fork Lion's Park", "description": null, "timestamp": null, "begin": null, "end": null, "altitudeMode": null, "tessellate": -1, "extrude": 0, "visibility": -1, "drawOrder": null, "icon": null }, "geometry": { "type": "Point", "coordinates": [ -111.807465, 40.3745261, 0.0 ] } },
{ "type": "Feature", "properties": { "Name": "Rotary Park", "description": null, "timestamp": null, "begin": null, "end": null, "altitudeMode": null, "tessellate": -1, "extrude": 0, "visibility": -1, "drawOrder": null, "icon": null }, "geometry": { "type": "Point", "coordinates": [ -111.7923366, 40.3704042, 0.0 ] } },
{ "type": "Feature", "properties": { "Name": "Easton", "description": null, "timestamp": null, "begin": null, "end": null, "altitudeMode": null, "tessellate": -1, "extrude": 0, "visibility": -1, "drawOrder": null, "icon": null }, "geometry": { "type": "Point", "coordinates": [ -111.7770793, 40.3663689, 0.0 ] } },
{ "type": "Feature", "properties": { "Name": "Battle Creek Park", "description": null, "timestamp": null, "begin": null, "end": null, "altitudeMode": null, "tessellate": -1, "extrude": 0, "visibility": -1, "drawOrder": null, "icon": null }, "geometry": { "type": "Point", "coordinates": [ -111.7223399, 40.3593942, 0.0 ] } },
{ "type": "Feature", "properties": { "Name": "Orchard Park", "description": null, "timestamp": null, "begin": null, "end": null, "altitudeMode": null, "tessellate": -1, "extrude": 0, "visibility": -1, "drawOrder": null, "icon": null }, "geometry": { "type": "Point", "coordinates": [ -111.6791146, 40.3167562, 0.0 ] } },
{ "type": "Feature", "properties": { "Name": "Foothill Park", "description": null, "timestamp": null, "begin": null, "end": null, "altitudeMode": null, "tessellate": -1, "extrude": 0, "visibility": -1, "drawOrder": null, "icon": null }, "geometry": { "type": "Point", "coordinates": [ -111.6671904, 40.3154404, 0.0 ] } },
{ "type": "Feature", "properties": { "Name": "Canyon View Park", "description": null, "timestamp": null, "begin": null, "end": null, "altitudeMode": null, "tessellate": -1, "extrude": 0, "visibility": -1, "drawOrder": null, "icon": null }, "geometry": { "type": "Point", "coordinates": [ -111.644079, 40.3239752, 0.0 ] } },
{ "type": "Feature", "properties": { "Name": "Canyon Glen Park", "description": null, "timestamp": null, "begin": null, "end": null, "altitudeMode": null, "tessellate": -1, "extrude": 0, "visibility": -1, "drawOrder": null, "icon": null }, "geometry": { "type": "Point", "coordinates": [ -111.6201256, 40.3296592, 0.0 ] } },
{ "type": "Feature", "properties": { "Name": "Nunns Park", "description": null, "timestamp": null, "begin": null, "end": null, "altitudeMode": null, "tessellate": -1, "extrude": 0, "visibility": -1, "drawOrder": null, "icon": null }, "geometry": { "type": "Point", "coordinates": [ -111.6123905, 40.3362697, 0.0 ] } },
{ "type": "Feature", "properties": { "Name": "Vivian Park", "description": null, "timestamp": null, "begin": null, "end": null, "altitudeMode": null, "tessellate": -1, "extrude": 0, "visibility": -1, "drawOrder": null, "icon": null }, "geometry": { "type": "Point", "coordinates": [ -111.5735363, 40.355398, 0.0 ] } },
{ "type": "Feature", "properties": { "Name": "Vineyard Grove Park", "description": null, "timestamp": null, "begin": null, "end": null, "altitudeMode": null, "tessellate": -1, "extrude": 0, "visibility": -1, "drawOrder": null, "icon": null }, "geometry": { "type": "Point", "coordinates": [ -111.7519373, 40.3030313, 0.0 ] } },
{ "type": "Feature", "properties": { "Name": "J. Rulon Gammon Park", "description": null, "timestamp": null, "begin": null, "end": null, "altitudeMode": null, "tessellate": -1, "extrude": 0, "visibility": -1, "drawOrder": null, "icon": null }, "geometry": { "type": "Point", "coordinates": [ -111.747591, 40.2964613, 0.0 ] } },
{ "type": "Feature", "properties": { "Name": "Pickle Park - \"Katrina's Park\"", "description": null, "timestamp": null, "begin": null, "end": null, "altitudeMode": null, "tessellate": -1, "extrude": 0, "visibility": -1, "drawOrder": null, "icon": null }, "geometry": { "type": "Point", "coordinates": [ -111.7446046, 40.2814358, 0.0 ] } },
{ "type": "Feature", "properties": { "Name": "Springwater Park", "description": null, "timestamp": null, "begin": null, "end": null, "altitudeMode": null, "tessellate": -1, "extrude": 0, "visibility": -1, "drawOrder": null, "icon": null }, "geometry": { "type": "Point", "coordinates": [ -111.7365927, 40.2795674, 0.0 ] } },
{ "type": "Feature", "properties": { "Name": "Cherryhill Park", "description": null, "timestamp": null, "begin": null, "end": null, "altitudeMode": null, "tessellate": -1, "extrude": 0, "visibility": -1, "drawOrder": null, "icon": null }, "geometry": { "type": "Point", "coordinates": [ -111.6895483, 40.2647588, 0.0 ] } },
{ "type": "Feature", "properties": { "Name": "Park Lane Park", "description": null, "timestamp": null, "begin": null, "end": null, "altitudeMode": null, "tessellate": -1, "extrude": 0, "visibility": -1, "drawOrder": null, "icon": null }, "geometry": { "type": "Point", "coordinates": [ -111.6934433, 40.261217, 0.0 ] } },
{ "type": "Feature", "properties": { "Name": "Carterville Park", "description": null, "timestamp": null, "begin": null, "end": null, "altitudeMode": null, "tessellate": -1, "extrude": 0, "visibility": -1, "drawOrder": null, "icon": null }, "geometry": { "type": "Point", "coordinates": [ -111.67308, 40.2668897, 0.0 ] } },
{ "type": "Feature", "properties": { "Name": "Canyon Crest Elementary School", "description": null, "timestamp": null, "begin": null, "end": null, "altitudeMode": null, "tessellate": -1, "extrude": 0, "visibility": -1, "drawOrder": null, "icon": null }, "geometry": { "type": "Point", "coordinates": [ -111.651347107047613, 40.295405716555408, 0.0 ] } },
{ "type": "Feature", "properties": { "Name": "Sherwood Hillside Park", "description": null, "timestamp": null, "begin": null, "end": null, "altitudeMode": null, "tessellate": -1, "extrude": 0, "visibility": -1, "drawOrder": null, "icon": null }, "geometry": { "type": "Point", "coordinates": [ -111.6418299, 40.2935236, 0.0 ] } },
{ "type": "Feature", "properties": { "Name": "Rock Canyon Elementary School", "description": null, "timestamp": null, "begin": null, "end": null, "altitudeMode": null, "tessellate": -1, "extrude": 0, "visibility": -1, "drawOrder": null, "icon": null }, "geometry": { "type": "Point", "coordinates": [ -111.651522328660064, 40.266224372327585, 0.0 ] } },
{ "type": "Feature", "properties": { "Name": "Lakeview Elementary School", "description": null, "timestamp": null, "begin": null, "end": null, "altitudeMode": null, "tessellate": -1, "extrude": 0, "visibility": -1, "drawOrder": null, "icon": null }, "geometry": { "type": "Point", "coordinates": [ -111.708764, 40.2510172, 0.0 ] } },
{ "type": "Feature", "properties": { "Name": "Harbor Park", "description": null, "timestamp": null, "begin": null, "end": null, "altitudeMode": null, "tessellate": -1, "extrude": 0, "visibility": -1, "drawOrder": null, "icon": null }, "geometry": { "type": "Point", "coordinates": [ -111.702892070253142, 40.24499681739038, 0.0 ] } },
{ "type": "Feature", "properties": { "Name": "Fort Utah Park", "description": null, "timestamp": null, "begin": null, "end": null, "altitudeMode": null, "tessellate": -1, "extrude": 0, "visibility": -1, "drawOrder": null, "icon": null }, "geometry": { "type": "Point", "coordinates": [ -111.6942536, 40.2362622, 0.0 ] } },
{ "type": "Feature", "properties": { "Name": "Sunset Park", "description": null, "timestamp": null, "begin": null, "end": null, "altitudeMode": null, "tessellate": -1, "extrude": 0, "visibility": -1, "drawOrder": null, "icon": null }, "geometry": { "type": "Point", "coordinates": [ -111.6870904, 40.2292004, 0.0 ] } },
{ "type": "Feature", "properties": { "Name": "Amelia Earhart Field", "description": null, "timestamp": null, "begin": null, "end": null, "altitudeMode": null, "tessellate": -1, "extrude": 0, "visibility": -1, "drawOrder": null, "icon": null }, "geometry": { "type": "Point", "coordinates": [ -111.7059441, 40.230454, 0.0 ] } },
{ "type": "Feature", "properties": { "Name": "Harmon Park", "description": null, "timestamp": null, "begin": null, "end": null, "altitudeMode": null, "tessellate": -1, "extrude": 0, "visibility": -1, "drawOrder": null, "icon": null }, "geometry": { "type": "Point", "coordinates": [ -111.6433419, 40.2311362, 0.0 ] } },
{ "type": "Feature", "properties": { "Name": "Neighborhood Park", "description": null, "timestamp": null, "begin": null, "end": null, "altitudeMode": null, "tessellate": -1, "extrude": 0, "visibility": -1, "drawOrder": null, "icon": null }, "geometry": { "type": "Point", "coordinates": [ -111.640454, 40.2308626, 0.0 ] } },
{ "type": "Feature", "properties": { "Name": "Provost Elementary School", "description": null, "timestamp": null, "begin": null, "end": null, "altitudeMode": null, "tessellate": -1, "extrude": 0, "visibility": -1, "drawOrder": null, "icon": null }, "geometry": { "type": "Point", "coordinates": [ -111.6406537, 40.2261558, 0.0 ] } },
{ "type": "Feature", "properties": { "Name": "Spring Creek Elementary School", "description": null, "timestamp": null, "begin": null, "end": null, "altitudeMode": null, "tessellate": -1, "extrude": 0, "visibility": -1, "drawOrder": null, "icon": null }, "geometry": { "type": "Point", "coordinates": [ -111.626068089835115, 40.208368694880122, 0.0 ] } },
{ "type": "Feature", "properties": { "Name": "Harvest Park Event Center", "description": null, "timestamp": null, "begin": null, "end": null, "altitudeMode": null, "tessellate": -1, "extrude": 0, "visibility": -1, "drawOrder": null, "icon": null }, "geometry": { "type": "Point", "coordinates": [ -111.6035682, 40.1228217, 0.0 ] } },
{ "type": "Feature", "properties": { "Name": "Willows Park", "description": null, "timestamp": null, "begin": null, "end": null, "altitudeMode": null, "tessellate": -1, "extrude": 0, "visibility": -1, "drawOrder": null, "icon": null }, "geometry": { "type": "Point", "coordinates": [ -111.6268652, 40.1239896, 0.0 ] } },
{ "type": "Feature", "properties": { "Name": "Sierra Park", "description": null, "timestamp": null, "begin": null, "end": null, "altitudeMode": null, "tessellate": -1, "extrude": 0, "visibility": -1, "drawOrder": null, "icon": null }, "geometry": { "type": "Point", "coordinates": [ -111.6226559, 40.1110341, 0.0 ] } },
{ "type": "Feature", "properties": { "Name": "Spanish Fork Sports Park", "description": null, "timestamp": null, "begin": null, "end": null, "altitudeMode": null, "tessellate": -1, "extrude": 0, "visibility": -1, "drawOrder": null, "icon": null }, "geometry": { "type": "Point", "coordinates": [ -111.6621989, 40.1000166, 0.0 ] } },
{ "type": "Feature", "properties": { "Name": "Dry Creek Park", "description": null, "timestamp": null, "begin": null, "end": null, "altitudeMode": null, "tessellate": -1, "extrude": 0, "visibility": -1, "drawOrder": null, "icon": null }, "geometry": { "type": "Point", "coordinates": [ -111.7340228, 40.0237194, 0.0 ] } },
{ "type": "Feature", "properties": { "Name": "Temple View Park", "description": null, "timestamp": null, "begin": null, "end": null, "altitudeMode": null, "tessellate": -1, "extrude": 0, "visibility": -1, "drawOrder": null, "icon": null }, "geometry": { "type": "Point", "coordinates": [ -111.659697996714257, 40.048340700625666, 0.0 ] } },
{ "type": "Feature", "properties": { "Name": "Maples Park", "description": null, "timestamp": null, "begin": null, "end": null, "altitudeMode": null, "tessellate": -1, "extrude": 0, "visibility": -1, "drawOrder": null, "icon": null }, "geometry": { "type": "Point", "coordinates": [ -111.7465072, 40.0204297, 0.0 ] } },
{ "type": "Feature", "properties": { "Name": "Centennial Park", "description": null, "timestamp": null, "begin": null, "end": null, "altitudeMode": null, "tessellate": -1, "extrude": 0, "visibility": -1, "drawOrder": null, "icon": null }, "geometry": { "type": "Point", "coordinates": [ -111.791649, 39.9729169, 0.0 ] } },
{ "type": "Feature", "properties": { "Name": "Sunset Trails Park", "description": null, "timestamp": null, "begin": null, "end": null, "altitudeMode": null, "tessellate": -1, "extrude": 0, "visibility": -1, "drawOrder": null, "icon": null }, "geometry": { "type": "Point", "coordinates": [ -111.8199687, 39.9636664, 0.0 ] } },
{ "type": "Feature", "properties": { "Name": "park", "description": null, "timestamp": null, "begin": null, "end": null, "altitudeMode": null, "tessellate": null, "extrude": null, "visibility": null, "drawOrder": null, "icon": null }, "geometry": { "type": "Point", "coordinates": [ -111.872134136668066, 40.28794898236292 ] } },
{ "type": "Feature", "properties": { "Name": "Penny Springs Park", "description": null, "timestamp": null, "begin": null, "end": null, "altitudeMode": null, "tessellate": null, "extrude": null, "visibility": null, "drawOrder": null, "icon": null }, "geometry": { "type": "Point", "coordinates": [ -111.752262850661964, 40.306856866788408 ] } },
{ "type": "Feature", "properties": { "Name": "park Westside Elementary School", "description": null, "timestamp": null, "begin": null, "end": null, "altitudeMode": null, "tessellate": null, "extrude": null, "visibility": null, "drawOrder": null, "icon": null }, "geometry": { "type": "Point", "coordinates": [ -111.624929050301873, 40.168041047274315 ] } },
{ "type": "Feature", "properties": { "Name": "park", "description": null, "timestamp": null, "begin": null, "end": null, "altitudeMode": null, "tessellate": null, "extrude": null, "visibility": null, "drawOrder": null, "icon": null }, "geometry": { "type": "Point", "coordinates": [ -111.600886843956062, 40.121594592258703 ] } },
{ "type": "Feature", "properties": { "Name": "park Spanish Fork River Park", "description": null, "timestamp": null, "begin": null, "end": null, "altitudeMode": null, "tessellate": null, "extrude": null, "visibility": null, "drawOrder": null, "icon": null }, "geometry": { "type": "Point", "coordinates": [ -111.504675657598597, 40.025032751169093 ] } }
]
}
